[
  {
    "service": "instacart",
    "service_display_name": "Instacart",
    "title": "Shop, Deliver, Earn Cash - Instacart",
    "company": "Instacart Shoppers",
    "city": "The Bluffs",
    "state": "LA",
    "location": "The Bluffs, LA     •  via Snagajob",
    "posted_date": "2025-08-08 07:54 AM",
    "scraped_at": "2025-08-08T20:54:24.107Z"
  },
  {
    "service": "instacart",
    "service_display_name": "Instacart",
    "title": "Shop, Deliver, Earn Cash - Instacart",
    "company": "Instacart Shoppers",
    "city": "Hoopeston",
    "state": "IL",
    "location": "Hoopeston, IL     •  via Snagajob",
    "posted_date": "2025-08-08 12:54 PM",
    "scraped_at": "2025-08-08T20:54:24.112Z"
  },
  {
    "service": "instacart",
    "service_display_name": "Instacart",
    "title": "Instacart Delivery Driver - Flexible Hours",
    "company": "Instacart Shoppers",
    "city": "St James",
    "state": "LA",
    "location": "St James, LA     •  via Snagajob",
    "posted_date": "2025-08-08 08:54 AM",
    "scraped_at": "2025-08-08T20:54:24.113Z"
  },
  {
    "service": "instacart",
    "service_display_name": "Instacart",
    "title": "Shop, Deliver, Earn Cash - Instacart",
    "company": "Instacart Shoppers",
    "city": "Loranger",
    "state": "LA",
    "location": "Loranger, LA     •  via Snagajob",
    "posted_date": "2025-08-08 07:54 AM",
    "scraped_at": "2025-08-08T20:54:24.115Z"
  },
  {
    "service": "instacart",
    "service_display_name": "Instacart",
    "title": "Shop and Deliver - No Experience Required",
    "company": "Instacart Shoppers",
    "city": "Napoleonville",
    "state": "LA",
    "location": "Napoleonville, LA     •  via Snagajob",
    "posted_date": "2025-08-08 10:54 AM",
    "scraped_at": "2025-08-08T20:54:24.116Z"
  },
  {
    "service": "instacart",
    "service_display_name": "Instacart",
    "title": "Shop and Deliver - No Experience Required",
    "company": "Instacart Shoppers",
    "city": "Amite City",
    "state": "LA",
    "location": "Amite City, LA     •  via Snagajob",
    "posted_date": "2025-08-08 09:54 AM",
    "scraped_at": "2025-08-08T20:54:24.117Z"
  },
  {
    "service": "instacart",
    "service_display_name": "Instacart",
    "title": "Shop, Deliver, Earn Cash - Instacart",
    "company": "Instacart Shoppers",
    "city": "Portage",
    "state": "WI",
    "location": "Portage, WI     •  via Snagajob",
    "posted_date": "2025-08-08 12:54 PM",
    "scraped_at": "2025-08-08T20:54:24.119Z"
  },
  {
    "service": "instacart",
    "service_display_name": "Instacart",
    "title": "Instacart Delivery Driver - Flexible Hours",
    "company": "Instacart Shoppers",
    "city": "Long Neck",
    "state": "DE",
    "location": "Long Neck, DE     •  via Snagajob",
    "posted_date": "2025-08-08 11:54 AM",
    "scraped_at": "2025-08-08T20:54:24.120Z"
  },
  {
    "service": "instacart",
    "service_display_name": "Instacart",
    "title": "Shop, Deliver, Earn Cash - Instacart",
    "company": "Instacart Shoppers",
    "city": "Farmingdale",
    "state": "NJ",
    "location": "Farmingdale, NJ     •  via Snagajob",
    "posted_date": "2025-08-08 12:54 PM",
    "scraped_at": "2025-08-08T20:54:24.122Z"
  }
]
