[
  {
    "service": "instacart",
    "service_display_name": "Instacart",
    "title": "Shop, Deliver, Earn Cash - Instacart",
    "company": "Instacart Shoppers",
    "city": "Wahiawa",
    "state": "HI",
    "location": "Wahiawa, HI     •  via Snagajob",
    "posted_date": "2025-08-08 11:11 AM",
    "scraped_at": "2025-08-08T21:11:17.003Z"
  },
  {
    "service": "instacart",
    "service_display_name": "Instacart",
    "title": "Shop, Deliver, Earn Cash - Instacart",
    "company": "Instacart Shoppers",
    "city": "Baton Rouge",
    "state": "LA",
    "location": "Baton Rouge, LA     •  via Snagajob",
    "posted_date": "2025-08-08 11:11 AM",
    "scraped_at": "2025-08-08T21:11:17.004Z"
  },
  {
    "service": "instacart",
    "service_display_name": "Instacart",
    "title": "Shop, Deliver, Earn Cash - Instacart",
    "company": "Instacart Shoppers",
    "city": "Loranger",
    "state": "LA",
    "location": "Loranger, LA     •  via Snagajob",
    "posted_date": "2025-08-08 11:11 AM",
    "scraped_at": "2025-08-08T21:11:17.008Z"
  },
  {
    "service": "instacart",
    "service_display_name": "Instacart",
    "title": "Shop, Deliver, Earn Cash - Instacart",
    "company": "Instacart Shoppers",
    "city": "Cisco",
    "state": "IL",
    "location": "Cisco, IL     •  via Snagajob",
    "posted_date": "2025-08-08 11:11 AM",
    "scraped_at": "2025-08-08T21:11:17.010Z"
  },
  {
    "service": "instacart",
    "service_display_name": "Instacart",
    "title": "Shop, Deliver, Earn Cash - Instacart",
    "company": "Instacart Shoppers",
    "city": "Milton",
    "state": "NH",
    "location": "Milton, NH     •  via Snagajob",
    "posted_date": "2025-08-08 11:11 AM",
    "scraped_at": "2025-08-08T21:11:17.011Z"
  },
  {
    "service": "instacart",
    "service_display_name": "Instacart",
    "title": "Shop and Deliver - No Experience Required",
    "company": "Instacart Shoppers",
    "city": "Little River",
    "state": "SC",
    "location": "Little River, SC     •  via Snagajob",
    "posted_date": "2025-08-08 11:11 AM",
    "scraped_at": "2025-08-08T21:11:17.013Z"
  }
]
