[
  {
    "service": "instacart",
    "service_display_name": "Instacart",
    "title": "Shop, Deliver, Earn Cash - Instacart",
    "company": "Instacart Shoppers",
    "city": "Port Allen",
    "state": "LA",
    "location": "Port Allen, LA     •  via Snagajob",
    "posted_date": "2025-08-08 01:34 PM",
    "scraped_at": "2025-08-08T23:34:54.373Z"
  },
  {
    "service": "instacart",
    "service_display_name": "Instacart",
    "title": "Instacart Delivery Driver - Flexible Hours",
    "company": "Instacart Shoppers",
    "city": "Mt Hermon",
    "state": "LA",
    "location": "Mt Hermon, LA     •  via Snagajob",
    "posted_date": "2025-08-08 01:34 PM",
    "scraped_at": "2025-08-08T23:34:54.375Z"
  },
  {
    "service": "instacart",
    "service_display_name": "Instacart",
    "title": "Shop and Deliver - No Experience Required",
    "company": "Instacart Shoppers",
    "city": "Napoleonville",
    "state": "LA",
    "location": "Napoleonville, LA     •  via Snagajob",
    "posted_date": "2025-08-08 01:34 PM",
    "scraped_at": "2025-08-08T23:34:54.378Z"
  },
  {
    "service": "instacart",
    "service_display_name": "Instacart",
    "title": "Instacart Shopper - Delivery Driver",
    "company": "Instacart Shoppers",
    "city": "Wahiawa",
    "state": "HI",
    "location": "Wahiawa, HI     •  via Snagajob",
    "posted_date": "2025-08-08 01:34 PM",
    "scraped_at": "2025-08-08T23:34:54.380Z"
  },
  {
    "service": "instacart",
    "service_display_name": "Instacart",
    "title": "Instacart Shopper - Delivery Driver",
    "company": "Instacart Shoppers",
    "city": "Harwich",
    "state": "MA",
    "location": "Harwich, MA     •  via Snagajob",
    "posted_date": "2025-08-08 01:34 PM",
    "scraped_at": "2025-08-08T23:34:54.382Z"
  },
  {
    "service": "instacart",
    "service_display_name": "Instacart",
    "title": "Shop, Deliver, Earn Cash - Instacart",
    "company": "Instacart Shoppers",
    "city": "Cisco",
    "state": "IL",
    "location": "Cisco, IL     •  via Snagajob",
    "posted_date": "2025-08-08 01:34 PM",
    "scraped_at": "2025-08-08T23:34:54.385Z"
  },
  {
    "service": "doordash",
    "service_display_name": "DoorDash",
    "title": "Drive with Doordash - No CDL license needed",
    "company": "DoorDash",
    "city": "Gans",
    "state": "PA",
    "location": "Gans, PA     •  via Indeed",
    "posted_date": "2025-08-08 01:35 PM",
    "scraped_at": "2025-08-08T23:35:15.010Z"
  },
  {
    "service": "doordash",
    "service_display_name": "DoorDash",
    "title": "Junior Account Manager - Mid-Market RX",
    "company": "DoorDash",
    "city": "New York",
    "state": "NY",
    "location": "New York, NY     •  via LinkedIn",
    "posted_date": "2025-08-08 01:35 PM",
    "scraped_at": "2025-08-08T23:35:15.013Z"
  },
  {
    "service": "doordash",
    "service_display_name": "DoorDash",
    "title": "Strategic Sales Development Representative",
    "company": "DoorDash",
    "city": "Dallas",
    "state": "TX",
    "location": "Dallas, TX     •  via LinkedIn",
    "posted_date": "2025-08-08 01:35 PM",
    "scraped_at": "2025-08-08T23:35:15.016Z"
  },
  {
    "service": "doordash",
    "service_display_name": "DoorDash",
    "title": "Associate, New Verticals - Catalog Strategy & Operations",
    "company": "DoorDash",
    "city": "Seattle",
    "state": "WA",
    "location": "Seattle, WA     •  via LinkedIn",
    "posted_date": "2025-08-08 01:35 PM",
    "scraped_at": "2025-08-08T23:35:15.020Z"
  },
  {
    "service": "doordash",
    "service_display_name": "DoorDash",
    "title": "Marketing Manager - Rewards, Ratings, & Sentiment",
    "company": "DoorDash",
    "city": "Los Angeles",
    "state": "CA",
    "location": "Los Angeles, CA     •  via LinkedIn",
    "posted_date": "2025-08-08 01:35 PM",
    "scraped_at": "2025-08-08T23:35:15.022Z"
  },
  {
    "service": "doordash",
    "service_display_name": "DoorDash",
    "title": "Senior Product Designer, New Verticals Shopper ExperienceNewSan Francisco, CA; N",
    "company": "DoorDash",
    "city": "San Francisco",
    "state": "CA",
    "location": "San Francisco, CA     •  via Media Bistro",
    "posted_date": "2025-08-08 01:35 PM",
    "scraped_at": "2025-08-08T23:35:15.026Z"
  },
  {
    "service": "amazon_flex",
    "service_display_name": "Amazon Flex",
    "title": "Amazon Delivery Driver",
    "company": "Amazon Flex",
    "city": "Royston",
    "state": "GA",
    "location": "Royston, GA     •  via Appjobs",
    "posted_date": "2025-08-08 01:35 PM",
    "scraped_at": "2025-08-08T23:35:50.759Z"
  },
  {
    "service": "amazon_flex",
    "service_display_name": "Amazon Flex",
    "title": "Amazon Delivery Driver",
    "company": "Amazon Flex",
    "city": "Oxford",
    "state": "AL",
    "location": "Oxford, AL     •  via Appjobs",
    "posted_date": "2025-08-08 01:35 PM",
    "scraped_at": "2025-08-08T23:35:50.762Z"
  },
  {
    "service": "amazon_flex",
    "service_display_name": "Amazon Flex",
    "title": "Amazon Delivery Driver",
    "company": "Amazon Flex",
    "city": "Winterville",
    "state": "GA",
    "location": "Winterville, GA     •  via Appjobs",
    "posted_date": "2025-08-08 01:35 PM",
    "scraped_at": "2025-08-08T23:35:50.764Z"
  },
  {
    "service": "amazon_flex",
    "service_display_name": "Amazon Flex",
    "title": "Amazon Delivery Driver",
    "company": "Amazon Flex",
    "city": "Ashland",
    "state": "OH",
    "location": "Ashland, OH     •  via Appjobs",
    "posted_date": "2025-08-08 01:35 PM",
    "scraped_at": "2025-08-08T23:35:50.768Z"
  },
  {
    "service": "amazon_flex",
    "service_display_name": "Amazon Flex",
    "title": "Amazon Delivery Driver",
    "company": "Amazon Flex",
    "city": "Whitakers",
    "state": "NC",
    "location": "Whitakers, NC     •  via Appjobs",
    "posted_date": "2025-08-08 01:35 PM",
    "scraped_at": "2025-08-08T23:35:50.771Z"
  },
  {
    "service": "amazon_flex",
    "service_display_name": "Amazon Flex",
    "title": "Amazon Delivery Driver",
    "company": "Amazon Flex",
    "city": "Ontario",
    "state": "OH",
    "location": "Ontario, OH     •  via Appjobs",
    "posted_date": "2025-08-08 01:35 PM",
    "scraped_at": "2025-08-08T23:35:50.772Z"
  },
  {
    "service": "grubhub",
    "service_display_name": "Grubhub",
    "title": "Grubhub Driver - Williamsburg, VA - Fast Cash, Flexible Work! - Now Hiring",
    "company": "Grubhub",
    "city": "Spring Grove",
    "state": "VA",
    "location": "Spring Grove, VA     •  via Snagajob",
    "posted_date": "2025-08-08 11:36 AM",
    "scraped_at": "2025-08-08T23:36:01.974Z"
  },
  {
    "service": "grubhub",
    "service_display_name": "Grubhub",
    "title": "No Experience Necessary Driver",
    "company": "Grubhub",
    "city": "Bellvue",
    "state": "CO",
    "location": "Bellvue, CO     •  via BeBee",
    "posted_date": "2025-08-08 01:36 PM",
    "scraped_at": "2025-08-08T23:36:01.990Z"
  },
  {
    "service": "grubhub",
    "service_display_name": "Grubhub",
    "title": "Earn up to $17 /hr - Grubhub Delivery Driver! at Grubhub West New York, NJ",
    "company": "Grubhub",
    "city": "West New York",
    "state": "NJ",
    "location": "West New York, NJ     •  via WindPower Sports Kites",
    "posted_date": "2025-08-08 01:36 PM",
    "scraped_at": "2025-08-08T23:36:01.994Z"
  },
  {
    "service": "roadie",
    "service_display_name": "Roadie",
    "title": "Delivery Driver (avg. $13 per local trip + Cash-out Instantly)",
    "company": "Roadie",
    "city": "Seymour",
    "state": "IN",
    "location": "Seymour, IN     •  via Recruit.net",
    "posted_date": "2025-08-08 01:36 PM",
    "scraped_at": "2025-08-08T23:36:12.806Z"
  },
  {
    "service": "roadie",
    "service_display_name": "Roadie",
    "title": "Delivery Driver (avg. $13 per local trip + Cash-out Instantly)",
    "company": "Roadie",
    "city": "Rio Grande City",
    "state": "TX",
    "location": "Rio Grande City, TX     •  via Recruit.net",
    "posted_date": "2025-08-08 01:36 PM",
    "scraped_at": "2025-08-08T23:36:12.827Z"
  },
  {
    "service": "roadie",
    "service_display_name": "Roadie",
    "title": "Delivery Driver (avg. $13 per local trip + Cash-out Instantly)",
    "company": "Roadie",
    "city": "Lebanon",
    "state": "OR",
    "location": "Lebanon, OR     •  via Recruit.net",
    "posted_date": "2025-08-08 01:36 PM",
    "scraped_at": "2025-08-08T23:36:12.834Z"
  },
  {
    "service": "roadie",
    "service_display_name": "Roadie",
    "title": "Delivery Driver (avg. $13 per local trip + Cash-out Instantly)",
    "company": "Roadie",
    "city": "Copperas Cove",
    "state": "TX",
    "location": "Copperas Cove, TX     •  via Recruit.net",
    "posted_date": "2025-08-08 01:36 PM",
    "scraped_at": "2025-08-08T23:36:12.837Z"
  },
  {
    "service": "roadie",
    "service_display_name": "Roadie",
    "title": "Delivery Driver (avg. $13 per local trip + Cash-out Instantly)",
    "company": "Roadie",
    "city": "Fenton",
    "state": "MO",
    "location": "Fenton, MO     •  via Recruit.net",
    "posted_date": "2025-08-08 01:36 PM",
    "scraped_at": "2025-08-08T23:36:12.839Z"
  },
  {
    "service": "roadie",
    "service_display_name": "Roadie",
    "title": "Delivery Driver (avg. $13 per local trip + Cash-out Instantly)",
    "company": "Roadie",
    "city": "Norwich",
    "state": "CT",
    "location": "Norwich, CT     •  via Recruit.net",
    "posted_date": "2025-08-08 01:36 PM",
    "scraped_at": "2025-08-08T23:36:12.844Z"
  },
  {
    "service": "spark_delivery",
    "service_display_name": "Spark Delivery",
    "title": "Delivery Driver – Hiring Immediately in Dunkirk, MD – (job id: 1680322001)",
    "company": "vmysmartpros",
    "city": "Anywhere",
    "state": "",
    "location": "Anywhere   •  via MySmartpros",
    "posted_date": "2025-08-08 01:36 PM",
    "scraped_at": "2025-08-08T23:36:23.543Z"
  },
  {
    "service": "spark_delivery",
    "service_display_name": "Spark Delivery",
    "title": "Part-time driver |  Reno, NV",
    "company": "Uber",
    "city": "Reno",
    "state": "NV",
    "location": "Reno, NV     •  via Uber",
    "posted_date": "2025-08-08 01:36 PM",
    "scraped_at": "2025-08-08T23:36:23.548Z"
  },
  {
    "service": "spark_delivery",
    "service_display_name": "Spark Delivery",
    "title": "Warehouse Driver",
    "company": "Interior Logic Group",
    "city": "Sparks",
    "state": "NV",
    "location": "Sparks, NV     •  via BeBee",
    "posted_date": "2025-08-08 01:36 PM",
    "scraped_at": "2025-08-08T23:36:23.553Z"
  }
]
