[
  {
    "service": "instacart",
    "service_display_name": "Instacart",
    "title": "Shop and Deliver - No Experience Required",
    "company": "Instacart Shoppers",
    "city": "Pine Grove",
    "state": "LA",
    "location": "Pine Grove, LA     •  via Snagajob",
    "posted_date": "2025-08-08 12:00 PM",
    "scraped_at": "2025-08-08T21:00:44.346Z"
  },
  {
    "service": "instacart",
    "service_display_name": "Instacart",
    "title": "Instacart Delivery Driver - Flexible Hours",
    "company": "Instacart Shoppers",
    "city": "Greenwood",
    "state": "DE",
    "location": "Greenwood, DE     •  via Snagajob",
    "posted_date": "2025-08-08 12:00 PM",
    "scraped_at": "2025-08-08T21:00:44.348Z"
  },
  {
    "service": "instacart",
    "service_display_name": "Instacart",
    "title": "Shop, Deliver, Earn Cash - Instacart",
    "company": "Instacart Shoppers",
    "city": "Bethel",
    "state": "DE",
    "location": "Bethel, DE     •  via Snagajob",
    "posted_date": "2025-08-08 12:00 PM",
    "scraped_at": "2025-08-08T21:00:44.350Z"
  },
  {
    "service": "instacart",
    "service_display_name": "Instacart",
    "title": "Shop and Deliver - No Experience Required",
    "company": "Instacart Shoppers",
    "city": "Amite City",
    "state": "LA",
    "location": "Amite City, LA     •  via Snagajob",
    "posted_date": "2025-08-08 12:00 PM",
    "scraped_at": "2025-08-08T21:00:44.351Z"
  },
  {
    "service": "instacart",
    "service_display_name": "Instacart",
    "title": "Shop, Deliver, Earn Cash - Instacart",
    "company": "Instacart Shoppers",
    "city": "Baton Rouge",
    "state": "LA",
    "location": "Baton Rouge, LA     •  via Snagajob",
    "posted_date": "2025-08-08 12:00 PM",
    "scraped_at": "2025-08-08T21:00:44.358Z"
  },
  {
    "service": "instacart",
    "service_display_name": "Instacart",
    "title": "Shop, Deliver, Earn Cash - Instacart",
    "company": "Instacart Shoppers",
    "city": "Pillager",
    "state": "MN",
    "location": "Pillager, MN     •  via Snagajob",
    "posted_date": "2025-08-08 12:00 PM",
    "scraped_at": "2025-08-08T21:00:44.360Z"
  },
  {
    "service": "instacart",
    "service_display_name": "Instacart",
    "title": "Instacart Delivery Driver - Flexible Hours",
    "company": "Instacart Shoppers",
    "city": "Long Neck",
    "state": "DE",
    "location": "Long Neck, DE     •  via Snagajob",
    "posted_date": "2025-08-08 12:00 PM",
    "scraped_at": "2025-08-08T21:00:44.362Z"
  },
  {
    "service": "instacart",
    "service_display_name": "Instacart",
    "title": "Shop and Deliver - No Experience Required",
    "company": "Instacart Shoppers",
    "city": "Tangipahoa",
    "state": "LA",
    "location": "Tangipahoa, LA     •  via Snagajob",
    "posted_date": "2025-08-08 12:00 PM",
    "scraped_at": "2025-08-08T21:00:44.364Z"
  },
  {
    "service": "instacart",
    "service_display_name": "Instacart",
    "title": "Shop, Deliver, Earn Cash - Instacart",
    "company": "Instacart Shoppers",
    "city": "Milton",
    "state": "NH",
    "location": "Milton, NH     •  via Snagajob",
    "posted_date": "2025-08-08 12:00 PM",
    "scraped_at": "2025-08-08T21:00:44.366Z"
  }
]
