[
  {
    "service": "amazon_flex",
    "service_display_name": "Amazon Flex",
    "title": "Amazon Delivery Driver",
    "company": "Amazon Flex",
    "city": "Royston",
    "state": "GA",
    "location": "Royston, GA     •  via Appjobs",
    "posted_date": "2025-08-08 01:35 PM",
    "scraped_at": "2025-08-08T23:35:50.759Z"
  },
  {
    "service": "amazon_flex",
    "service_display_name": "Amazon Flex",
    "title": "Amazon Delivery Driver",
    "company": "Amazon Flex",
    "city": "Oxford",
    "state": "AL",
    "location": "Oxford, AL     •  via Appjobs",
    "posted_date": "2025-08-08 01:35 PM",
    "scraped_at": "2025-08-08T23:35:50.762Z"
  },
  {
    "service": "amazon_flex",
    "service_display_name": "Amazon Flex",
    "title": "Amazon Delivery Driver",
    "company": "Amazon Flex",
    "city": "Winterville",
    "state": "GA",
    "location": "Winterville, GA     •  via Appjobs",
    "posted_date": "2025-08-08 01:35 PM",
    "scraped_at": "2025-08-08T23:35:50.764Z"
  },
  {
    "service": "amazon_flex",
    "service_display_name": "Amazon Flex",
    "title": "Amazon Delivery Driver",
    "company": "Amazon Flex",
    "city": "Ashland",
    "state": "OH",
    "location": "Ashland, OH     •  via Appjobs",
    "posted_date": "2025-08-08 01:35 PM",
    "scraped_at": "2025-08-08T23:35:50.768Z"
  },
  {
    "service": "amazon_flex",
    "service_display_name": "Amazon Flex",
    "title": "Amazon Delivery Driver",
    "company": "Amazon Flex",
    "city": "Whitakers",
    "state": "NC",
    "location": "Whitakers, NC     •  via Appjobs",
    "posted_date": "2025-08-08 01:35 PM",
    "scraped_at": "2025-08-08T23:35:50.771Z"
  },
  {
    "service": "amazon_flex",
    "service_display_name": "Amazon Flex",
    "title": "Amazon Delivery Driver",
    "company": "Amazon Flex",
    "city": "Ontario",
    "state": "OH",
    "location": "Ontario, OH     •  via Appjobs",
    "posted_date": "2025-08-08 01:35 PM",
    "scraped_at": "2025-08-08T23:35:50.772Z"
  }
]
