[
  {
    "service": "doordash",
    "service_display_name": "DoorDash",
    "title": "Drive with Doordash - No CDL license needed",
    "company": "DoorDash",
    "city": "Gans",
    "state": "PA",
    "location": "Gans, PA     •  via Indeed",
    "posted_date": "2025-08-08 01:35 PM",
    "scraped_at": "2025-08-08T23:35:15.010Z"
  },
  {
    "service": "doordash",
    "service_display_name": "DoorDash",
    "title": "Junior Account Manager - Mid-Market RX",
    "company": "DoorDash",
    "city": "New York",
    "state": "NY",
    "location": "New York, NY     •  via LinkedIn",
    "posted_date": "2025-08-08 01:35 PM",
    "scraped_at": "2025-08-08T23:35:15.013Z"
  },
  {
    "service": "doordash",
    "service_display_name": "DoorDash",
    "title": "Strategic Sales Development Representative",
    "company": "DoorDash",
    "city": "Dallas",
    "state": "TX",
    "location": "Dallas, TX     •  via LinkedIn",
    "posted_date": "2025-08-08 01:35 PM",
    "scraped_at": "2025-08-08T23:35:15.016Z"
  },
  {
    "service": "doordash",
    "service_display_name": "DoorDash",
    "title": "Associate, New Verticals - Catalog Strategy & Operations",
    "company": "DoorDash",
    "city": "Seattle",
    "state": "WA",
    "location": "Seattle, WA     •  via LinkedIn",
    "posted_date": "2025-08-08 01:35 PM",
    "scraped_at": "2025-08-08T23:35:15.020Z"
  },
  {
    "service": "doordash",
    "service_display_name": "DoorDash",
    "title": "Marketing Manager - Rewards, Ratings, & Sentiment",
    "company": "DoorDash",
    "city": "Los Angeles",
    "state": "CA",
    "location": "Los Angeles, CA     •  via LinkedIn",
    "posted_date": "2025-08-08 01:35 PM",
    "scraped_at": "2025-08-08T23:35:15.022Z"
  },
  {
    "service": "doordash",
    "service_display_name": "DoorDash",
    "title": "Senior Product Designer, New Verticals Shopper ExperienceNewSan Francisco, CA; N",
    "company": "DoorDash",
    "city": "San Francisco",
    "state": "CA",
    "location": "San Francisco, CA     •  via Media Bistro",
    "posted_date": "2025-08-08 01:35 PM",
    "scraped_at": "2025-08-08T23:35:15.026Z"
  }
]
