[
  {
    "service": "instacart",
    "service_display_name": "Instacart",
    "title": "Shop and Deliver - No Experience Required",
    "company": "Instacart Shoppers",
    "city": "Pine Grove",
    "state": "LA",
    "location": "Pine Grove, LA     •  via Snagajob",
    "posted_date": "",
    "scraped_at": "2025-08-08T20:47:07.285Z"
  },
  {
    "service": "instacart",
    "service_display_name": "Instacart",
    "title": "Shop, Deliver, Earn Cash - Instacart",
    "company": "Instacart Shoppers",
    "city": "Belle Rose",
    "state": "LA",
    "location": "Belle Rose, LA     •  via Snagajob",
    "posted_date": "",
    "scraped_at": "2025-08-08T20:47:07.288Z"
  },
  {
    "service": "instacart",
    "service_display_name": "Instacart",
    "title": "Shop and Deliver - No Experience Required",
    "company": "Instacart Shoppers",
    "city": "Gonzales",
    "state": "LA",
    "location": "Gonzales, LA     •  via Snagajob",
    "posted_date": "",
    "scraped_at": "2025-08-08T20:47:07.290Z"
  },
  {
    "service": "instacart",
    "service_display_name": "Instacart",
    "title": "Shop, Deliver, Earn Cash - Instacart",
    "company": "Instacart Shoppers",
    "city": "Loranger",
    "state": "LA",
    "location": "Loranger, LA     •  via Snagajob",
    "posted_date": "",
    "scraped_at": "2025-08-08T20:47:07.301Z"
  },
  {
    "service": "instacart",
    "service_display_name": "Instacart",
    "title": "Instacart Delivery Driver - Flexible Hours",
    "company": "Instacart Shoppers",
    "city": "Long Neck",
    "state": "DE",
    "location": "Long Neck, DE     •  via Snagajob",
    "posted_date": "",
    "scraped_at": "2025-08-08T20:47:07.302Z"
  },
  {
    "service": "instacart",
    "service_display_name": "Instacart",
    "title": "Instacart Shopper - Delivery Driver",
    "company": "Instacart Shoppers",
    "city": "Harwich",
    "state": "MA",
    "location": "Harwich, MA     •  via Snagajob",
    "posted_date": "",
    "scraped_at": "2025-08-08T20:47:07.304Z"
  },
  {
    "service": "instacart",
    "service_display_name": "Instacart",
    "title": "Shop, Deliver, Earn Cash - Instacart",
    "company": "Instacart Shoppers",
    "city": "Mililani",
    "state": "HI",
    "location": "Mililani, HI     •  via Snagajob",
    "posted_date": "",
    "scraped_at": "2025-08-08T20:47:07.306Z"
  },
  {
    "service": "instacart",
    "service_display_name": "Instacart",
    "title": "Shop, Deliver, Earn Cash - Instacart",
    "company": "Instacart Shoppers",
    "city": "Portage",
    "state": "WI",
    "location": "Portage, WI     •  via Snagajob",
    "posted_date": "",
    "scraped_at": "2025-08-08T20:47:07.307Z"
  },
  {
    "service": "instacart",
    "service_display_name": "Instacart",
    "title": "Shop, Deliver, Earn Cash - Instacart",
    "company": "Instacart Shoppers",
    "city": "Ewa Beach",
    "state": "HI",
    "location": "Ewa Beach, HI     •  via Snagajob",
    "posted_date": "",
    "scraped_at": "2025-08-08T20:47:07.310Z"
  }
]
