[
  {
    "service": "instacart",
    "service_display_name": "Instacart",
    "title": "Shop, Deliver, Earn Cash - Instacart",
    "company": "Instacart Shoppers",
    "city": "The Bluffs",
    "state": "LA",
    "location": "The Bluffs, LA     •  via Snagajob",
    "posted_date": "2025-08-08 01:02 PM",
    "scraped_at": "2025-08-08T21:02:27.718Z"
  },
  {
    "service": "instacart",
    "service_display_name": "Instacart",
    "title": "Instacart Delivery Driver - Flexible Hours",
    "company": "Instacart Shoppers",
    "city": "Greenwood",
    "state": "DE",
    "location": "Greenwood, DE     •  via Snagajob",
    "posted_date": "2025-08-08 09:02 AM",
    "scraped_at": "2025-08-08T21:02:27.719Z"
  },
  {
    "service": "instacart",
    "service_display_name": "Instacart",
    "title": "Instacart Delivery Driver - Flexible Hours",
    "company": "Instacart Shoppers",
    "city": "White Castle",
    "state": "LA",
    "location": "White Castle, LA     •  via Snagajob",
    "posted_date": "2025-08-08 10:02 AM",
    "scraped_at": "2025-08-08T21:02:27.719Z"
  },
  {
    "service": "instacart",
    "service_display_name": "Instacart",
    "title": "Shop and Deliver - No Experience Required",
    "company": "Instacart Shoppers",
    "city": "Donaldsonville",
    "state": "LA",
    "location": "Donaldsonville, LA     •  via Snagajob",
    "posted_date": "2025-08-08 12:02 PM",
    "scraped_at": "2025-08-08T21:02:27.720Z"
  },
  {
    "service": "instacart",
    "service_display_name": "Instacart",
    "title": "Shop and Deliver - No Experience Required",
    "company": "Instacart Shoppers",
    "city": "St James",
    "state": "LA",
    "location": "St James, LA     •  via Snagajob",
    "posted_date": "2025-08-08 08:02 AM",
    "scraped_at": "2025-08-08T21:02:27.720Z"
  },
  {
    "service": "instacart",
    "service_display_name": "Instacart",
    "title": "Instacart Delivery Driver - Flexible Hours",
    "company": "Instacart Shoppers",
    "city": "St James",
    "state": "LA",
    "location": "St James, LA     •  via Snagajob",
    "posted_date": "2025-08-08 11:02 AM",
    "scraped_at": "2025-08-08T21:02:27.720Z"
  },
  {
    "service": "instacart",
    "service_display_name": "Instacart",
    "title": "Instacart Delivery Driver - Flexible Hours",
    "company": "Instacart Shoppers",
    "city": "Gonzales",
    "state": "LA",
    "location": "Gonzales, LA     •  via Snagajob",
    "posted_date": "2025-08-08 10:02 AM",
    "scraped_at": "2025-08-08T21:02:27.721Z"
  },
  {
    "service": "instacart",
    "service_display_name": "Instacart",
    "title": "Shop and Deliver - No Experience Required",
    "company": "Instacart Shoppers",
    "city": "Ethel",
    "state": "LA",
    "location": "Ethel, LA     •  via Snagajob",
    "posted_date": "2025-08-08 02:02 AM",
    "scraped_at": "2025-08-08T21:02:27.721Z"
  },
  {
    "service": "instacart",
    "service_display_name": "Instacart",
    "title": "Instacart Shopper - Delivery Driver",
    "company": "Instacart Shoppers",
    "city": "Marshall",
    "state": "WI",
    "location": "Marshall, WI     •  via Snagajob",
    "posted_date": "2025-08-08 11:02 AM",
    "scraped_at": "2025-08-08T21:02:27.721Z"
  },
  {
    "service": "instacart",
    "service_display_name": "Instacart",
    "title": "Shop, Deliver, Earn Cash - Instacart",
    "company": "Instacart Shoppers",
    "city": "Limerick",
    "state": "ME",
    "location": "Limerick, ME     •  via Snagajob",
    "posted_date": "2025-08-08 12:02 PM",
    "scraped_at": "2025-08-08T21:02:27.721Z"
  }
]
