[
  {
    "service": "instacart",
    "service_display_name": "Instacart",
    "title": "Shop, Deliver, Earn Cash - Instacart",
    "company": "Instacart Shoppers",
    "city": "Delmar",
    "state": "DE",
    "location": "Delmar, DE     •  via Snagajob",
    "posted_date": "",
    "scraped_at": "2025-08-08T20:43:18.187Z"
  },
  {
    "service": "instacart",
    "service_display_name": "Instacart",
    "title": "Instacart Delivery Driver - Flexible Hours",
    "company": "Instacart Shoppers",
    "city": "Bethel",
    "state": "DE",
    "location": "Bethel, DE     •  via Snagajob",
    "posted_date": "",
    "scraped_at": "2025-08-08T20:43:18.191Z"
  },
  {
    "service": "instacart",
    "service_display_name": "Instacart",
    "title": "Shop, Deliver, Earn Cash - Instacart",
    "company": "Instacart Shoppers",
    "city": "Harrington",
    "state": "DE",
    "location": "Harrington, DE     •  via Snagajob",
    "posted_date": "",
    "scraped_at": "2025-08-08T20:43:18.194Z"
  },
  {
    "service": "instacart",
    "service_display_name": "Instacart",
    "title": "Instacart Delivery Driver - Flexible Hours",
    "company": "Instacart Shoppers",
    "city": "Delmar",
    "state": "DE",
    "location": "Delmar, DE     •  via Snagajob",
    "posted_date": "",
    "scraped_at": "2025-08-08T20:43:18.197Z"
  },
  {
    "service": "instacart",
    "service_display_name": "Instacart",
    "title": "Instacart Delivery Driver - Flexible Hours",
    "company": "Instacart Shoppers",
    "city": "Long Neck",
    "state": "DE",
    "location": "Long Neck, DE     •  via Snagajob",
    "posted_date": "",
    "scraped_at": "2025-08-08T20:43:18.199Z"
  },
  {
    "service": "instacart",
    "service_display_name": "Instacart",
    "title": "Shop, Deliver, Earn Cash - Instacart",
    "company": "Instacart Shoppers",
    "city": "Houston",
    "state": "DE",
    "location": "Houston, DE     •  via Snagajob",
    "posted_date": "",
    "scraped_at": "2025-08-08T20:43:18.201Z"
  },
  {
    "service": "instacart",
    "service_display_name": "Instacart",
    "title": "Instacart Shopper - Delivery Driver",
    "company": "Instacart Shoppers",
    "city": "Selbyville",
    "state": "DE",
    "location": "Selbyville, DE     •  via Snagajob",
    "posted_date": "",
    "scraped_at": "2025-08-08T20:43:18.203Z"
  },
  {
    "service": "instacart",
    "service_display_name": "Instacart",
    "title": "Shop, Deliver, Earn Cash - Instacart",
    "company": "Instacart Shoppers",
    "city": "Yarmouth",
    "state": "MA",
    "location": "Yarmouth, MA     •  via Snagajob",
    "posted_date": "",
    "scraped_at": "2025-08-08T20:43:18.207Z"
  },
  {
    "service": "instacart",
    "service_display_name": "Instacart",
    "title": "Shop, Deliver, Earn Cash - Instacart",
    "company": "Instacart Shoppers",
    "city": "Raymond",
    "state": "ME",
    "location": "Raymond, ME     •  via Snagajob",
    "posted_date": "",
    "scraped_at": "2025-08-08T20:43:18.210Z"
  }
]
