[
  {
    "service": "instacart",
    "service_display_name": "Instacart",
    "title": "Shop and Deliver - No Experience Required",
    "company": "Instacart Shoppers",
    "city": "Pine Grove",
    "state": "LA",
    "location": "Pine Grove, LA     •  via Snagajob",
    "posted_date": "2025-08-08 07:57 AM",
    "scraped_at": "2025-08-08T20:57:41.701Z"
  },
  {
    "service": "instacart",
    "service_display_name": "Instacart",
    "title": "Instacart Delivery Driver - Flexible Hours",
    "company": "Instacart Shoppers",
    "city": "The Bluffs",
    "state": "LA",
    "location": "The Bluffs, LA     •  via Snagajob",
    "posted_date": "2025-08-08 07:57 AM",
    "scraped_at": "2025-08-08T20:57:41.703Z"
  },
  {
    "service": "instacart",
    "service_display_name": "Instacart",
    "title": "Instacart Delivery Driver - Flexible Hours",
    "company": "Instacart Shoppers",
    "city": "Greenwood",
    "state": "DE",
    "location": "Greenwood, DE     •  via Snagajob",
    "posted_date": "2025-08-07 10:57 PM",
    "scraped_at": "2025-08-08T20:57:41.704Z"
  },
  {
    "service": "instacart",
    "service_display_name": "Instacart",
    "title": "Shop, Deliver, Earn Cash - Instacart",
    "company": "Instacart Shoppers",
    "city": "Harrington",
    "state": "DE",
    "location": "Harrington, DE     •  via Snagajob",
    "posted_date": "2025-08-07 10:57 PM",
    "scraped_at": "2025-08-08T20:57:41.704Z"
  },
  {
    "service": "instacart",
    "service_display_name": "Instacart",
    "title": "Instacart Delivery Driver - Flexible Hours",
    "company": "Instacart Shoppers",
    "city": "Long Neck",
    "state": "DE",
    "location": "Long Neck, DE     •  via Snagajob",
    "posted_date": "2025-08-07 03:57 PM",
    "scraped_at": "2025-08-08T20:57:41.705Z"
  },
  {
    "service": "instacart",
    "service_display_name": "Instacart",
    "title": "Shop, Deliver, Earn Cash - Instacart",
    "company": "Instacart Shoppers",
    "city": "French Settlement",
    "state": "LA",
    "location": "French Settlement, LA     •  via Snagajob",
    "posted_date": "2025-08-08 07:57 AM",
    "scraped_at": "2025-08-08T20:57:41.705Z"
  },
  {
    "service": "instacart",
    "service_display_name": "Instacart",
    "title": "Shop, Deliver, Earn Cash - Instacart",
    "company": "Instacart Shoppers",
    "city": "Dewey Beach",
    "state": "DE",
    "location": "Dewey Beach, DE     •  via Snagajob",
    "posted_date": "2025-08-07 10:57 PM",
    "scraped_at": "2025-08-08T20:57:41.705Z"
  },
  {
    "service": "instacart",
    "service_display_name": "Instacart",
    "title": "Shop, Deliver, Earn Cash - Instacart",
    "company": "Instacart Shoppers",
    "city": "Wells",
    "state": "ME",
    "location": "Wells, ME     •  via Snagajob",
    "posted_date": "2025-08-08 07:57 AM",
    "scraped_at": "2025-08-08T20:57:41.706Z"
  },
  {
    "service": "instacart",
    "service_display_name": "Instacart",
    "title": "Shop, Deliver, Earn Cash - Instacart",
    "company": "Instacart Shoppers",
    "city": "Limerick",
    "state": "ME",
    "location": "Limerick, ME     •  via Snagajob",
    "posted_date": "2025-08-07 10:57 PM",
    "scraped_at": "2025-08-08T20:57:41.706Z"
  },
  {
    "service": "instacart",
    "service_display_name": "Instacart",
    "title": "Instacart Shopper - Delivery Driver",
    "company": "Instacart Shoppers",
    "city": "Selbyville",
    "state": "DE",
    "location": "Selbyville, DE     •  via Snagajob",
    "posted_date": "2025-08-07 03:57 PM",
    "scraped_at": "2025-08-08T20:57:41.706Z"
  }
]
