[
  {
    "service": "instacart",
    "service_display_name": "Instacart",
    "title": "Shop, Deliver, Earn Cash - Instacart",
    "company": "Instacart Shoppers",
    "city": "The Bluffs",
    "state": "LA",
    "location": "The Bluffs, LA     •  via Snagajob",
    "posted_date": "",
    "scraped_at": "2025-08-08T20:42:59.481Z"
  },
  {
    "service": "instacart",
    "service_display_name": "Instacart",
    "title": "Instacart Delivery Driver - Flexible Hours",
    "company": "Instacart Shoppers",
    "city": "The Bluffs",
    "state": "LA",
    "location": "The Bluffs, LA     •  via Snagajob",
    "posted_date": "",
    "scraped_at": "2025-08-08T20:42:59.496Z"
  },
  {
    "service": "instacart",
    "service_display_name": "Instacart",
    "title": "Instacart Delivery Driver - Flexible Hours",
    "company": "Instacart Shoppers",
    "city": "Bethel",
    "state": "DE",
    "location": "Bethel, DE     •  via Snagajob",
    "posted_date": "",
    "scraped_at": "2025-08-08T20:42:59.498Z"
  },
  {
    "service": "instacart",
    "service_display_name": "Instacart",
    "title": "Shop and Deliver - No Experience Required",
    "company": "Instacart Shoppers",
    "city": "Pearl City",
    "state": "HI",
    "location": "Pearl City, HI     •  via Snagajob",
    "posted_date": "",
    "scraped_at": "2025-08-08T20:42:59.500Z"
  },
  {
    "service": "instacart",
    "service_display_name": "Instacart",
    "title": "Shop, Deliver, Earn Cash - Instacart",
    "company": "Instacart Shoppers",
    "city": "Bethel",
    "state": "DE",
    "location": "Bethel, DE     •  via Snagajob",
    "posted_date": "",
    "scraped_at": "2025-08-08T20:42:59.502Z"
  },
  {
    "service": "instacart",
    "service_display_name": "Instacart",
    "title": "Shop, Deliver, Earn Cash - Instacart",
    "company": "Instacart Shoppers",
    "city": "Waipahu",
    "state": "HI",
    "location": "Waipahu, HI     •  via Snagajob",
    "posted_date": "",
    "scraped_at": "2025-08-08T20:42:59.504Z"
  },
  {
    "service": "instacart",
    "service_display_name": "Instacart",
    "title": "Shop, Deliver, Earn Cash - Instacart",
    "company": "Instacart Shoppers",
    "city": "Pawleys Island",
    "state": "SC",
    "location": "Pawleys Island, SC     •  via Snagajob",
    "posted_date": "",
    "scraped_at": "2025-08-08T20:42:59.505Z"
  },
  {
    "service": "instacart",
    "service_display_name": "Instacart",
    "title": "Shop, Deliver, Earn Cash - Instacart",
    "company": "Instacart Shoppers",
    "city": "Kapolei",
    "state": "HI",
    "location": "Kapolei, HI     •  via Snagajob",
    "posted_date": "",
    "scraped_at": "2025-08-08T20:42:59.507Z"
  },
  {
    "service": "instacart",
    "service_display_name": "Instacart",
    "title": "Shop, Deliver, Earn Cash - Instacart",
    "company": "Instacart Shoppers",
    "city": "Baxter",
    "state": "MN",
    "location": "Baxter, MN     •  via Snagajob",
    "posted_date": "",
    "scraped_at": "2025-08-08T20:42:59.509Z"
  }
]
