[
  {
    "service": "instacart",
    "service_display_name": "Instacart",
    "title": "Shop and Deliver - No Experience Required",
    "company": "Instacart Shoppers",
    "city": "Pine Grove",
    "state": "LA",
    "location": "Pine Grove, LA     •  via Snagajob",
    "posted_date": "",
    "scraped_at": "2025-08-08T20:53:13.421Z"
  },
  {
    "service": "instacart",
    "service_display_name": "Instacart",
    "title": "Shop, Deliver, Earn Cash - Instacart",
    "company": "Instacart Shoppers",
    "city": "Convent",
    "state": "LA",
    "location": "Convent, LA     •  via Snagajob",
    "posted_date": "",
    "scraped_at": "2025-08-08T20:53:13.436Z"
  },
  {
    "service": "instacart",
    "service_display_name": "Instacart",
    "title": "Shop and Deliver - No Experience Required",
    "company": "Instacart Shoppers",
    "city": "Kaneohe Base",
    "state": "",
    "location": "Kaneohe Base     •  via Snagajob",
    "posted_date": "",
    "scraped_at": "2025-08-08T20:53:13.440Z"
  },
  {
    "service": "instacart",
    "service_display_name": "Instacart",
    "title": "Instacart Shopper - Delivery Driver",
    "company": "Instacart Shoppers",
    "city": "French Settlement",
    "state": "LA",
    "location": "French Settlement, LA     •  via Snagajob",
    "posted_date": "",
    "scraped_at": "2025-08-08T20:53:13.449Z"
  },
  {
    "service": "instacart",
    "service_display_name": "Instacart",
    "title": "Shop, Deliver, Earn Cash - Instacart",
    "company": "Instacart Shoppers",
    "city": "Ventress",
    "state": "LA",
    "location": "Ventress, LA     •  via Snagajob",
    "posted_date": "",
    "scraped_at": "2025-08-08T20:53:13.452Z"
  },
  {
    "service": "instacart",
    "service_display_name": "Instacart",
    "title": "Instacart Shopper - Delivery Driver",
    "company": "Instacart Shoppers",
    "city": "Plaquemine",
    "state": "LA",
    "location": "Plaquemine, LA     •  via Snagajob",
    "posted_date": "",
    "scraped_at": "2025-08-08T20:53:13.455Z"
  },
  {
    "service": "instacart",
    "service_display_name": "Instacart",
    "title": "Instacart Shopper - Delivery Driver",
    "company": "Instacart Shoppers",
    "city": "Darrow",
    "state": "LA",
    "location": "Darrow, LA     •  via Snagajob",
    "posted_date": "",
    "scraped_at": "2025-08-08T20:53:13.456Z"
  },
  {
    "service": "instacart",
    "service_display_name": "Instacart",
    "title": "Shop, Deliver, Earn Cash - Instacart",
    "company": "Instacart Shoppers",
    "city": "Cisco",
    "state": "IL",
    "location": "Cisco, IL     •  via Snagajob",
    "posted_date": "",
    "scraped_at": "2025-08-08T20:53:13.460Z"
  },
  {
    "service": "instacart",
    "service_display_name": "Instacart",
    "title": "Instacart Shopper - Delivery Driver",
    "company": "Instacart Shoppers",
    "city": "Wahiawa",
    "state": "HI",
    "location": "Wahiawa, HI     •  via Snagajob",
    "posted_date": "",
    "scraped_at": "2025-08-08T20:53:13.464Z"
  }
]
