[
  {
    "service": "instacart",
    "service_display_name": "Instacart",
    "title": "Shop, Deliver, Earn Cash - Instacart",
    "company": "Instacart Shoppers",
    "city": "Port Allen",
    "state": "LA",
    "location": "Port Allen, LA     •  via Snagajob",
    "posted_date": "2025-08-08 01:34 PM",
    "scraped_at": "2025-08-08T23:34:54.373Z"
  },
  {
    "service": "instacart",
    "service_display_name": "Instacart",
    "title": "Instacart Delivery Driver - Flexible Hours",
    "company": "Instacart Shoppers",
    "city": "Mt Hermon",
    "state": "LA",
    "location": "Mt Hermon, LA     •  via Snagajob",
    "posted_date": "2025-08-08 01:34 PM",
    "scraped_at": "2025-08-08T23:34:54.375Z"
  },
  {
    "service": "instacart",
    "service_display_name": "Instacart",
    "title": "Shop and Deliver - No Experience Required",
    "company": "Instacart Shoppers",
    "city": "Napoleonville",
    "state": "LA",
    "location": "Napoleonville, LA     •  via Snagajob",
    "posted_date": "2025-08-08 01:34 PM",
    "scraped_at": "2025-08-08T23:34:54.378Z"
  },
  {
    "service": "instacart",
    "service_display_name": "Instacart",
    "title": "Instacart Shopper - Delivery Driver",
    "company": "Instacart Shoppers",
    "city": "Wahiawa",
    "state": "HI",
    "location": "Wahiawa, HI     •  via Snagajob",
    "posted_date": "2025-08-08 01:34 PM",
    "scraped_at": "2025-08-08T23:34:54.380Z"
  },
  {
    "service": "instacart",
    "service_display_name": "Instacart",
    "title": "Instacart Shopper - Delivery Driver",
    "company": "Instacart Shoppers",
    "city": "Harwich",
    "state": "MA",
    "location": "Harwich, MA     •  via Snagajob",
    "posted_date": "2025-08-08 01:34 PM",
    "scraped_at": "2025-08-08T23:34:54.382Z"
  },
  {
    "service": "instacart",
    "service_display_name": "Instacart",
    "title": "Shop, Deliver, Earn Cash - Instacart",
    "company": "Instacart Shoppers",
    "city": "Cisco",
    "state": "IL",
    "location": "Cisco, IL     •  via Snagajob",
    "posted_date": "2025-08-08 01:34 PM",
    "scraped_at": "2025-08-08T23:34:54.385Z"
  }
]
