[
  {
    "service": "instacart",
    "service_display_name": "Instacart",
    "title": "Shop and Deliver - No Experience Required",
    "company": "Instacart Shoppers",
    "city": "Pine Grove",
    "state": "LA",
    "location": "Pine Grove, LA     •  via Snagajob",
    "posted_date": "2025-08-08 10:58 AM",
    "scraped_at": "2025-08-08T20:58:36.416Z"
  },
  {
    "service": "instacart",
    "service_display_name": "Instacart",
    "title": "Instacart Delivery Driver - Flexible Hours",
    "company": "Instacart Shoppers",
    "city": "Banner",
    "state": "MS",
    "location": "Banner, MS     •  via Snagajob",
    "posted_date": "2025-08-08 07:58 AM",
    "scraped_at": "2025-08-08T20:58:36.419Z"
  },
  {
    "service": "instacart",
    "service_display_name": "Instacart",
    "title": "Instacart Shopper - Delivery Driver",
    "company": "Instacart Shoppers",
    "city": "Plaquemine",
    "state": "LA",
    "location": "Plaquemine, LA     •  via Snagajob",
    "posted_date": "2025-08-08 09:58 AM",
    "scraped_at": "2025-08-08T20:58:36.428Z"
  },
  {
    "service": "instacart",
    "service_display_name": "Instacart",
    "title": "Instacart Shopper - Delivery Driver",
    "company": "Instacart Shoppers",
    "city": "St James",
    "state": "LA",
    "location": "St James, LA     •  via Snagajob",
    "posted_date": "2025-08-08 12:58 PM",
    "scraped_at": "2025-08-08T20:58:36.429Z"
  },
  {
    "service": "instacart",
    "service_display_name": "Instacart",
    "title": "Instacart Shopper - Delivery Driver",
    "company": "Instacart Shoppers",
    "city": "Prairieville",
    "state": "LA",
    "location": "Prairieville, LA     •  via Snagajob",
    "posted_date": "2025-08-08 07:58 AM",
    "scraped_at": "2025-08-08T20:58:36.431Z"
  },
  {
    "service": "instacart",
    "service_display_name": "Instacart",
    "title": "Instacart Shopper - Delivery Driver",
    "company": "Instacart Shoppers",
    "city": "Wahiawa",
    "state": "HI",
    "location": "Wahiawa, HI     •  via Snagajob",
    "posted_date": "2025-08-08 08:58 AM",
    "scraped_at": "2025-08-08T20:58:36.432Z"
  },
  {
    "service": "instacart",
    "service_display_name": "Instacart",
    "title": "Instacart Delivery Driver - Flexible Hours",
    "company": "Instacart Shoppers",
    "city": "Long Neck",
    "state": "DE",
    "location": "Long Neck, DE     •  via Snagajob",
    "posted_date": "2025-08-08 08:58 AM",
    "scraped_at": "2025-08-08T20:58:36.433Z"
  },
  {
    "service": "instacart",
    "service_display_name": "Instacart",
    "title": "Shop and Deliver - No Experience Required",
    "company": "Instacart Shoppers",
    "city": "Pearl City",
    "state": "HI",
    "location": "Pearl City, HI     •  via Snagajob",
    "posted_date": "2025-08-08 11:58 AM",
    "scraped_at": "2025-08-08T20:58:36.435Z"
  },
  {
    "service": "instacart",
    "service_display_name": "Instacart",
    "title": "Shop, Deliver, Earn Cash - Instacart",
    "company": "Instacart Shoppers",
    "city": "Cisco",
    "state": "IL",
    "location": "Cisco, IL     •  via Snagajob",
    "posted_date": "2025-08-08 10:58 AM",
    "scraped_at": "2025-08-08T20:58:36.437Z"
  }
]
