[
  {
    "service": "instacart",
    "service_display_name": "Instacart",
    "title": "Shop and Deliver - No Experience Required",
    "company": "Instacart Shoppers",
    "city": "Pine Grove",
    "state": "LA",
    "location": "Pine Grove, LA     •  via Snagajob",
    "posted_date": "2025-08-08 08:07 AM",
    "scraped_at": "2025-08-08T21:07:23.011Z"
  },
  {
    "service": "instacart",
    "service_display_name": "Instacart",
    "title": "Shop, Deliver, Earn Cash - Instacart",
    "company": "Instacart Shoppers",
    "city": "The Bluffs",
    "state": "LA",
    "location": "The Bluffs, LA     •  via Snagajob",
    "posted_date": "2025-08-07 03:07 PM",
    "scraped_at": "2025-08-08T21:07:23.013Z"
  },
  {
    "service": "instacart",
    "service_display_name": "Instacart",
    "title": "Shop, Deliver, Earn Cash - Instacart",
    "company": "Instacart Shoppers",
    "city": "French Settlement",
    "state": "LA",
    "location": "French Settlement, LA     •  via Snagajob",
    "posted_date": "2025-08-07 11:07 PM",
    "scraped_at": "2025-08-08T21:07:23.015Z"
  },
  {
    "service": "instacart",
    "service_display_name": "Instacart",
    "title": "Shop, Deliver, Earn Cash - Instacart",
    "company": "Instacart Shoppers",
    "city": "Wahiawa",
    "state": "HI",
    "location": "Wahiawa, HI     •  via Snagajob",
    "posted_date": "2025-08-08 11:07 AM",
    "scraped_at": "2025-08-08T21:07:23.016Z"
  },
  {
    "service": "instacart",
    "service_display_name": "Instacart",
    "title": "Shop, Deliver, Earn Cash - Instacart",
    "company": "Instacart Shoppers",
    "city": "Darrow",
    "state": "LA",
    "location": "Darrow, LA     •  via Snagajob",
    "posted_date": "2025-08-08 11:07 AM",
    "scraped_at": "2025-08-08T21:07:23.017Z"
  },
  {
    "service": "instacart",
    "service_display_name": "Instacart",
    "title": "Shop and Deliver - No Experience Required",
    "company": "Instacart Shoppers",
    "city": "Amite City",
    "state": "LA",
    "location": "Amite City, LA     •  via Snagajob",
    "posted_date": "2025-08-08 11:07 AM",
    "scraped_at": "2025-08-08T21:07:23.018Z"
  },
  {
    "service": "instacart",
    "service_display_name": "Instacart",
    "title": "Shop, Deliver, Earn Cash - Instacart",
    "company": "Instacart Shoppers",
    "city": "Cisco",
    "state": "IL",
    "location": "Cisco, IL     •  via Snagajob",
    "posted_date": "2025-08-08 11:07 AM",
    "scraped_at": "2025-08-08T21:07:23.019Z"
  },
  {
    "service": "instacart",
    "service_display_name": "Instacart",
    "title": "Instacart Delivery Driver - Flexible Hours",
    "company": "Instacart Shoppers",
    "city": "Cisco",
    "state": "IL",
    "location": "Cisco, IL     •  via Snagajob",
    "posted_date": "2025-08-08 11:07 AM",
    "scraped_at": "2025-08-08T21:07:23.020Z"
  },
  {
    "service": "instacart",
    "service_display_name": "Instacart",
    "title": "Shop, Deliver, Earn Cash - Instacart",
    "company": "Instacart Shoppers",
    "city": "Harrington",
    "state": "DE",
    "location": "Harrington, DE     •  via Snagajob",
    "posted_date": "2025-08-08 11:07 AM",
    "scraped_at": "2025-08-08T21:07:23.021Z"
  }
]
