[
  {
    "service": "roadie",
    "service_display_name": "Roadie",
    "title": "Delivery Driver (avg. $13 per local trip + Cash-out Instantly)",
    "company": "Roadie",
    "city": "Seymour",
    "state": "IN",
    "location": "Seymour, IN     •  via Recruit.net",
    "posted_date": "2025-08-08 01:36 PM",
    "scraped_at": "2025-08-08T23:36:12.806Z"
  },
  {
    "service": "roadie",
    "service_display_name": "Roadie",
    "title": "Delivery Driver (avg. $13 per local trip + Cash-out Instantly)",
    "company": "Roadie",
    "city": "Rio Grande City",
    "state": "TX",
    "location": "Rio Grande City, TX     •  via Recruit.net",
    "posted_date": "2025-08-08 01:36 PM",
    "scraped_at": "2025-08-08T23:36:12.827Z"
  },
  {
    "service": "roadie",
    "service_display_name": "Roadie",
    "title": "Delivery Driver (avg. $13 per local trip + Cash-out Instantly)",
    "company": "Roadie",
    "city": "Lebanon",
    "state": "OR",
    "location": "Lebanon, OR     •  via Recruit.net",
    "posted_date": "2025-08-08 01:36 PM",
    "scraped_at": "2025-08-08T23:36:12.834Z"
  },
  {
    "service": "roadie",
    "service_display_name": "Roadie",
    "title": "Delivery Driver (avg. $13 per local trip + Cash-out Instantly)",
    "company": "Roadie",
    "city": "Copperas Cove",
    "state": "TX",
    "location": "Copperas Cove, TX     •  via Recruit.net",
    "posted_date": "2025-08-08 01:36 PM",
    "scraped_at": "2025-08-08T23:36:12.837Z"
  },
  {
    "service": "roadie",
    "service_display_name": "Roadie",
    "title": "Delivery Driver (avg. $13 per local trip + Cash-out Instantly)",
    "company": "Roadie",
    "city": "Fenton",
    "state": "MO",
    "location": "Fenton, MO     •  via Recruit.net",
    "posted_date": "2025-08-08 01:36 PM",
    "scraped_at": "2025-08-08T23:36:12.839Z"
  },
  {
    "service": "roadie",
    "service_display_name": "Roadie",
    "title": "Delivery Driver (avg. $13 per local trip + Cash-out Instantly)",
    "company": "Roadie",
    "city": "Norwich",
    "state": "CT",
    "location": "Norwich, CT     •  via Recruit.net",
    "posted_date": "2025-08-08 01:36 PM",
    "scraped_at": "2025-08-08T23:36:12.844Z"
  }
]
